[
  {
    "ISO_3166": "CN",
    "Country_EN": "China",
    "Country_CN": "中国",
    "Regions": [
      {
        "Name": "北京市",
        "Name_EN": "Beijing",
        "Citys": [
          {
            "Name": "北京市",
            "Name_EN": "Beijing",
            "Locations": [
              {
                "LocationID": "101010100",
                "Location_EN": "Beijing",
                "Location": "北京",
                "Latitude": "39.904987",
                "Longitude": "116.405289",
                "Adcode": "110000"
              },
              {
                "LocationID": "101010200",
                "Location_EN": "Haidian",
                "Location": "海淀",
                "Latitude": "39.956074",
                "Longitude": "116.310318",
                "Adcode": "110108"
              },
              {
                "LocationID": "101010300",
                "Location_EN": "Chaoyang",
                "Location": "朝阳",
                "Latitude": "39.92149",
                "Longitude": "116.486412",
                "Adcode": "110105"
              },
              {
                "LocationID": "101010400",
                "Location_EN": "Shunyi",
                "Location": "顺义",
                "Latitude": "40.128937",
                "Longitude": "116.653526",
                "Adcode": "110113"
              },
              {
                "LocationID": "101010500",
                "Location_EN": "Huairou",
                "Location": "怀柔",
                "Latitude": "40.324272",
                "Longitude": "116.637123",
                "Adcode": "110116"
              },
              {
                "LocationID": "101010600",
                "Location_EN": "Tongzhou",
                "Location": "通州",
                "Latitude": "39.902485",
                "Longitude": "116.6586",
                "Adcode": "110112"
              },
              {
                "LocationID": "101010700",
                "Location_EN": "Changping",
                "Location": "昌平",
                "Latitude": "40.218086",
                "Longitude": "116.235909",
                "Adcode": "110114"
              },
              {
                "LocationID": "101010800",
                "Location_EN": "Yanqing",
                "Location": "延庆",
                "Latitude": "40.465324",
                "Longitude": "115.985008",
                "Adcode": "110119"
              },
              {
                "LocationID": "101010900",
                "Location_EN": "Fengtai",
                "Location": "丰台",
                "Latitude": "39.863644",
                "Longitude": "116.286964",
                "Adcode": "110106"
              },
              {
                "LocationID": "101011000",
                "Location_EN": "Shijingshan",
                "Location": "石景山",
                "Latitude": "39.9146",
                "Longitude": "116.195442",
                "Adcode": "110107"
              },
              {
                "LocationID": "101011100",
                "Location_EN": "Daxing",
                "Location": "大兴",
                "Latitude": "39.728909",
                "Longitude": "116.338036",
                "Adcode": "110115"
              },
              {
                "LocationID": "101011200",
                "Location_EN": "Fangshan",
                "Location": "房山",
                "Latitude": "39.735535",
                "Longitude": "116.13916",
                "Adcode": "110111"
              },
              {
                "LocationID": "101011300",
                "Location_EN": "Miyun",
                "Location": "密云",
                "Latitude": "40.377361",
                "Longitude": "116.843353",
                "Adcode": "110118"
              },
              {
                "LocationID": "101011400",
                "Location_EN": "Mentougou",
                "Location": "门头沟",
                "Latitude": "39.937183",
                "Longitude": "116.105377",
                "Adcode": "110109"
              },
              {
                "LocationID": "101011500",
                "Location_EN": "Pinggu",
                "Location": "平谷",
                "Latitude": "40.144783",
                "Longitude": "117.112335",
                "Adcode": "110117"
              },
              {
                "LocationID": "101011600",
                "Location_EN": "Dongcheng",
                "Location": "东城",
                "Latitude": "39.917545",
                "Longitude": "116.418755",
                "Adcode": "110101"
              },
              {
                "LocationID": "101011700",
                "Location_EN": "Xicheng",
                "Location": "西城",
                "Latitude": "39.91531",
                "Longitude": "116.366791",
                "Adcode": "110102"
              }
            ]
          }
        ]
      },
      {
        "Name": "上海市",
        "Name_EN": "Shanghai",
        "Citys": [
          {
            "Name": "上海市",
            "Name_EN": "Shanghai",
            "Locations": [
              {
                "LocationID": "101020100",
                "Location_EN": "Shanghai",
                "Location": "上海",
                "Latitude": "31.231707",
                "Longitude": "121.472641",
                "Adcode": "310000"
              },
              {
                "LocationID": "101020200",
                "Location_EN": "Minhang",
                "Location": "闵行",
                "Latitude": "31.111658",
                "Longitude": "121.375969",
                "Adcode": "310112"
              },
              {
                "LocationID": "101020300",
                "Location_EN": "Baoshan",
                "Location": "宝山",
                "Latitude": "31.398895",
                "Longitude": "121.489937",
                "Adcode": "310113"
              },
              {
                "LocationID": "101020400",
                "Location_EN": "Huangpu",
                "Location": "黄浦",
                "Latitude": "31.222771",
                "Longitude": "121.490318",
                "Adcode": "310101"
              },
              {
                "LocationID": "101020500",
                "Location_EN": "Jiading",
                "Location": "嘉定",
                "Latitude": "31.383524",
                "Longitude": "121.250336",
                "Adcode": "310114"
              },
              {
                "LocationID": "101020600",
                "Location_EN": "Pudong",
                "Location": "浦东新区",
                "Latitude": "31.245943",
                "Longitude": "121.567703",
                "Adcode": "310115"
              },
              {
                "LocationID": "101020700",
                "Location_EN": "Jinshan",
                "Location": "金山",
                "Latitude": "30.724697",
                "Longitude": "121.330734",
                "Adcode": "310116"
              },
              {
                "LocationID": "101020800",
                "Location_EN": "Qingpu",
                "Location": "青浦",
                "Latitude": "31.151209",
                "Longitude": "121.113022",
                "Adcode": "310118"
              },
              {
                "LocationID": "101020900",
                "Location_EN": "Songjiang",
                "Location": "松江",
                "Latitude": "31.03047",
                "Longitude": "121.223541",
                "Adcode": "310117"
              },
              {
                "LocationID": "101021000",
                "Location_EN": "Fengxian",
                "Location": "奉贤",
                "Latitude": "30.912346",
                "Longitude": "121.458473",
                "Adcode": "310120"
              },
              {
                "LocationID": "101021100",
                "Location_EN": "Chongming",
                "Location": "崇明",
                "Latitude": "31.626945",
                "Longitude": "121.397514",
                "Adcode": "310151"
              },
              {
                "LocationID": "101021200",
                "Location_EN": "Xuhui",
                "Location": "徐汇",
                "Latitude": "31.179974",
                "Longitude": "121.437523",
                "Adcode": "310104"
              },
              {
                "LocationID": "101021300",
                "Location_EN": "Changning",
                "Location": "长宁",
                "Latitude": "31.218122",
                "Longitude": "121.422203",
                "Adcode": "310105"
              },
              {
                "LocationID": "101021400",
                "Location_EN": "Jing'an",
                "Location": "静安",
                "Latitude": "31.229004",
                "Longitude": "121.448227",
                "Adcode": "310106"
              },
              {
                "LocationID": "101021500",
                "Location_EN": "Putuo",
                "Location": "普陀",
                "Latitude": "31.241701",
                "Longitude": "121.392502",
                "Adcode": "310107"
              },
              {
                "LocationID": "101021600",
                "Location_EN": "Hongkou",
                "Location": "虹口",
                "Latitude": "31.260969",
                "Longitude": "121.491829",
                "Adcode": "310109"
              },
              {
                "LocationID": "101021700",
                "Location_EN": "Yangpu",
                "Location": "杨浦",
                "Latitude": "31.270756",
                "Longitude": "121.522797",
                "Adcode": "310110"
              }
            ]
          }
        ]
      },
      {
        "Name": "天津市",
        "Name_EN": "Tianjin",
        "Citys": [
          {
            "Name": "天津市",
            "Name_EN": "Tianjin",
            "Locations": [
              {
                "LocationID": "101030100",
                "Location_EN": "Tianjin",
                "Location": "天津",
                "Latitude": "39.125595",
                "Longitude": "117.190186",
                "Adcode": "120000"
              },
              {
                "LocationID": "101030200",
                "Location_EN": "Wuqing",
                "Location": "武清",
                "Latitude": "39.376926",
                "Longitude": "117.057961",
                "Adcode": "120114"
              },
              {
                "LocationID": "101030300",
                "Location_EN": "Baodi",
                "Location": "宝坻",
                "Latitude": "39.716965",
                "Longitude": "117.30809",
                "Adcode": "120115"
              },
              {
                "LocationID": "101030400",
                "Location_EN": "Dongli",
                "Location": "东丽",
                "Latitude": "39.087765",
                "Longitude": "117.313965",
                "Adcode": "120110"
              },
              {
                "LocationID": "101030500",
                "Location_EN": "Xiqing",
                "Location": "西青",
                "Latitude": "39.139446",
                "Longitude": "117.012245",
                "Adcode": "120111"
              },
              {
                "LocationID": "101030600",
                "Location_EN": "Beichen",
                "Location": "北辰",
                "Latitude": "39.225555",
                "Longitude": "117.134819",
                "Adcode": "120113"
              },
              {
                "LocationID": "101030700",
                "Location_EN": "Ninghe",
                "Location": "宁河",
                "Latitude": "39.328884",
                "Longitude": "117.828278",
                "Adcode": "120117"
              },
              {
                "LocationID": "101030800",
                "Location_EN": "Heping",
                "Location": "和平",
                "Latitude": "39.118328",
                "Longitude": "117.195908",
                "Adcode": "120101"
              },
              {
                "LocationID": "101030900",
                "Location_EN": "Jinghai",
                "Location": "静海",
                "Latitude": "38.935673",
                "Longitude": "116.925301",
                "Adcode": "120118"
              },
              {
                "LocationID": "101031000",
                "Location_EN": "Jinnan",
                "Location": "津南",
                "Latitude": "38.989578",
                "Longitude": "117.382545",
                "Adcode": "120112"
              },
              {
                "LocationID": "101031100",
                "Location_EN": "Binhai",
                "Location": "滨海新区",
                "Latitude": "39.032845",
                "Longitude": "117.654175",
                "Adcode": "120116"
              },
              {
                "LocationID": "101031200",
                "Location_EN": "Hedong",
                "Location": "河东",
                "Latitude": "39.122124",
                "Longitude": "117.22657",
                "Adcode": "120102"
              },
              {
                "LocationID": "101031300",
                "Location_EN": "Hexi",
                "Location": "河西",
                "Latitude": "39.101898",
                "Longitude": "117.217537",
                "Adcode": "120103"
              },
              {
                "LocationID": "101031400",
                "Location_EN": "Jizhou",
                "Location": "蓟州",
                "Latitude": "40.045341",
                "Longitude": "117.407448",
                "Adcode": "120119"
              },
              {
                "LocationID": "101031500",
                "Location_EN": "Nankai",
                "Location": "南开",
                "Latitude": "39.120476",
                "Longitude": "117.164146",
                "Adcode": "120104"
              },
              {
                "LocationID": "101031600",
                "Location_EN": "Hebei",
                "Location": "河北",
                "Latitude": "39.156631",
                "Longitude": "117.201569",
                "Adcode": "120105"
              },
              {
                "LocationID": "101031700",
                "Location_EN": "Hongqiao",
                "Location": "红桥",
                "Latitude": "39.175068",
                "Longitude": "117.1633",
                "Adcode": "120106"
              }
            ]
          }
        ]
      },
      {
        "Name": "重庆市",
        "Name_EN": "Chongqing",
        "Citys": [
          {
            "Name": "重庆市",
            "Name_EN": "Chongqing",
            "Locations": [
              {
                "LocationID": "101040100",
                "Location_EN": "Chongqing",
                "Location": "重庆",
                "Latitude": "29.563761",
                "Longitude": "106.550461",
                "Adcode": "500000"
              },
              {
                "LocationID": "101040200",
                "Location_EN": "Yongchuan",
                "Location": "永川",
                "Latitude": "29.348747",
                "Longitude": "105.894714",
                "Adcode": "500118"
              },
              {
                "LocationID": "101040300",
                "Location_EN": "Hechuan",
                "Location": "合川",
                "Latitude": "29.990993",
                "Longitude": "106.265556",
                "Adcode": "500117"
              },
              {
                "LocationID": "101040400",
                "Location_EN": "Nanchuan",
                "Location": "南川",
                "Latitude": "29.156647",
                "Longitude": "107.098152",
                "Adcode": "500119"
              },
              {
                "LocationID": "101040500",
                "Location_EN": "Jiangjin",
                "Location": "江津",
                "Latitude": "29.283386",
                "Longitude": "106.253159",
                "Adcode": "500116"
              },
              {
                "LocationID": "101040700",
                "Location_EN": "Yu Bei",
                "Location": "渝北",
                "Latitude": "29.601452",
                "Longitude": "106.512848",
                "Adcode": "500112"
              },
              {
                "LocationID": "101040800",
                "Location_EN": "Beibei",
                "Location": "北碚",
                "Latitude": "29.82543",
                "Longitude": "106.437866",
                "Adcode": "500109"
              },
              {
                "LocationID": "101040900",
                "Location_EN": "Banan",
                "Location": "巴南",
                "Latitude": "29.38192",
                "Longitude": "106.519424",
                "Adcode": "500113"
              },
              {
                "LocationID": "101041000",
                "Location_EN": "Changshou",
                "Location": "长寿",
                "Latitude": "29.833672",
                "Longitude": "107.074852",
                "Adcode": "500115"
              },
              {
                "LocationID": "101041100",
                "Location_EN": "Qianjiang",
                "Location": "黔江",
                "Latitude": "29.527548",
                "Longitude": "108.782578",
                "Adcode": "500114"
              },
              {
                "LocationID": "101041200",
                "Location_EN": "Yuzhong",
                "Location": "渝中",
                "Latitude": "29.556742",
                "Longitude": "106.562881",
                "Adcode": "500103"
              },
              {
                "LocationID": "101041300",
                "Location_EN": "Wanzhou",
                "Location": "万州",
                "Latitude": "30.807808",
                "Longitude": "108.380249",
                "Adcode": "500101"
              },
              {
                "LocationID": "101041400",
                "Location_EN": "Fuling",
                "Location": "涪陵",
                "Latitude": "29.703651",
                "Longitude": "107.394905",
                "Adcode": "500102"
              },
              {
                "LocationID": "101041600",
                "Location_EN": "Chengkou",
                "Location": "城口",
                "Latitude": "31.946293",
                "Longitude": "108.664902",
                "Adcode": "500229"
              },
              {
                "LocationID": "101041700",
                "Location_EN": "Yunyang",
                "Location": "云阳",
                "Latitude": "30.930529",
                "Longitude": "108.697701",
                "Adcode": "500235"
              },
              {
                "LocationID": "101041800",
                "Location_EN": "Wuxi",
                "Location": "巫溪",
                "Latitude": "31.396601",
                "Longitude": "109.628914",
                "Adcode": "500238"
              },
              {
                "LocationID": "101041900",
                "Location_EN": "Fengjie",
                "Location": "奉节",
                "Latitude": "31.019966",
                "Longitude": "109.465775",
                "Adcode": "500236"
              },
              {
                "LocationID": "101042000",
                "Location_EN": "Wushan",
                "Location": "巫山",
                "Latitude": "31.074842",
                "Longitude": "109.878929",
                "Adcode": "500237"
              },
              {
                "LocationID": "101042100",
                "Location_EN": "Tongnan",
                "Location": "潼南",
                "Latitude": "30.189554",
                "Longitude": "105.84182",
                "Adcode": "500152"
              },
              {
                "LocationID": "101042200",
                "Location_EN": "Dianjiang",
                "Location": "垫江",
                "Latitude": "30.330011",
                "Longitude": "107.348694",
                "Adcode": "500231"
              },
              {
                "LocationID": "101042300",
                "Location_EN": "Liangping",
                "Location": "梁平",
                "Latitude": "30.672169",
                "Longitude": "107.800034",
                "Adcode": "500155"
              },
              {
                "LocationID": "101042400",
                "Location_EN": "Zhong County",
                "Location": "忠县",
                "Latitude": "30.291536",
                "Longitude": "108.037521",
                "Adcode": "500233"
              },
              {
                "LocationID": "101042500",
                "Location_EN": "Shizhu",
                "Location": "石柱",
                "Latitude": "29.999285",
                "Longitude": "108.114067",
                "Adcode": "500240"
              },
              {
                "LocationID": "101042600",
                "Location_EN": "Dazu",
                "Location": "大足",
                "Latitude": "29.700499",
                "Longitude": "105.715317",
                "Adcode": "500111"
              },
              {
                "LocationID": "101042700",
                "Location_EN": "Rongchang",
                "Location": "荣昌",
                "Latitude": "29.403627",
                "Longitude": "105.594063",
                "Adcode": "500153"
              },
              {
                "LocationID": "101042800",
                "Location_EN": "Tongliang",
                "Location": "铜梁",
                "Latitude": "29.839945",
                "Longitude": "106.054947",
                "Adcode": "500151"
              },
              {
                "LocationID": "101042900",
                "Location_EN": "Bishan",
                "Location": "璧山",
                "Latitude": "29.59358",
                "Longitude": "106.231125",
                "Adcode": "500120"
              },
              {
                "LocationID": "101043000",
                "Location_EN": "Fengdu",
                "Location": "丰都",
                "Latitude": "29.866425",
                "Longitude": "107.732483",
                "Adcode": "500230"
              },
              {
                "LocationID": "101043100",
                "Location_EN": "Wulong",
                "Location": "武隆",
                "Latitude": "29.323759",
                "Longitude": "107.756554",
                "Adcode": "500156"
              },
              {
                "LocationID": "101043200",
                "Location_EN": "Pengshui",
                "Location": "彭水",
                "Latitude": "29.293856",
                "Longitude": "108.16655",
                "Adcode": "500243"
              },
              {
                "LocationID": "101043300",
                "Location_EN": "Qijiang",
                "Location": "綦江",
                "Latitude": "29.028091",
                "Longitude": "106.651421",
                "Adcode": "500110"
              },
              {
                "LocationID": "101043400",
                "Location_EN": "Youyang",
                "Location": "酉阳",
                "Latitude": "28.839828",
                "Longitude": "108.767204",
                "Adcode": "500242"
              },
              {
                "LocationID": "101043500",
                "Location_EN": "Dadukou",
                "Location": "大渡口",
                "Latitude": "29.481003",
                "Longitude": "106.48613",
                "Adcode": "500104"
              },
              {
                "LocationID": "101043600",
                "Location_EN": "Xiushan",
                "Location": "秀山",
                "Latitude": "28.444773",
                "Longitude": "108.99604",
                "Adcode": "500241"
              },
              {
                "LocationID": "101043700",
                "Location_EN": "Jiangbei",
                "Location": "江北",
                "Latitude": "29.575352",
                "Longitude": "106.532845",
                "Adcode": "500105"
              },
              {
                "LocationID": "101043800",
                "Location_EN": "Shapingba",
                "Location": "沙坪坝",
                "Latitude": "29.541224",
                "Longitude": "106.454201",
                "Adcode": "500106"
              },
              {
                "LocationID": "101043900",
                "Location_EN": "Jiulongpo",
                "Location": "九龙坡",
                "Latitude": "29.523493",
                "Longitude": "106.480988",
                "Adcode": "500107"
              },
              {
                "LocationID": "101044000",
                "Location_EN": "Nan'an",
                "Location": "南岸",
                "Latitude": "29.523993",
                "Longitude": "106.560814",
                "Adcode": "500108"
              },
              {
                "LocationID": "101044100",
                "Location_EN": "Kaizhou",
                "Location": "开州",
                "Latitude": "31.167734",
                "Longitude": "108.413315",
                "Adcode": "500154"
              }
            ]
          }
        ]
      },
      {
        "Name": "黑龙江省",
        "Name_EN": "Heilongjiang",
        "Citys": [
          {
            "Name": "哈尔滨市",
            "Name_EN": "Harbin",
            "Locations": [
              {
                "LocationID": "101050101",
                "Location_EN": "Harbin",
                "Location": "哈尔滨",
                "Latitude": "45.756966",
                "Longitude": "126.642464",
                "Adcode": "230100"
              },
              {
                "LocationID": "101050102",
                "Location_EN": "Shuangcheng",
                "Location": "双城",
                "Latitude": "45.377941",
                "Longitude": "126.308784",
                "Adcode": "230113"
              },
              {
                "LocationID": "101050103",
                "Location_EN": "Hulan",
                "Location": "呼兰",
                "Latitude": "45.98423",
                "Longitude": "126.603302",
                "Adcode": "230111"
              },
              {
                "LocationID": "101050104",
                "Location_EN": "Acheng",
                "Location": "阿城",
                "Latitude": "45.538372",
                "Longitude": "126.972725",
                "Adcode": "230112"
              },
              {
                "LocationID": "101050105",
                "Location_EN": "Bin County",
                "Location": "宾县",
                "Latitude": "45.759369",
                "Longitude": "127.485939",
                "Adcode": "230125"
              },
              {
                "LocationID": "101050106",
                "Location_EN": "Yilan",
                "Location": "依兰",
                "Latitude": "46.315105",
                "Longitude": "129.565598",
                "Adcode": "230123"
              },
              {
                "LocationID": "101050107",
                "Location_EN": "Bayan",
                "Location": "巴彦",
                "Latitude": "46.08189",
                "Longitude": "127.403603",
                "Adcode": "230126"
              },
              {
                "LocationID": "101050108",
                "Location_EN": "Tonghe",
                "Location": "通河",
                "Latitude": "45.977619",
                "Longitude": "128.747787",
                "Adcode": "230128"
              },
              {
                "LocationID": "101050109",
                "Location_EN": "Fangzheng",
                "Location": "方正",
                "Latitude": "45.839535",
                "Longitude": "128.836136",
                "Adcode": "230124"
              },
              {
                "LocationID": "101050110",
                "Location_EN": "Yanshou",
                "Location": "延寿",
                "Latitude": "45.455647",
                "Longitude": "128.331879",
                "Adcode": "230129"
              },
              {
                "LocationID": "101050111",
                "Location_EN": "Shangzhi",
                "Location": "尚志",
                "Latitude": "45.214954",
                "Longitude": "127.968536",
                "Adcode": "230183"
              },
              {
                "LocationID": "101050112",
                "Location_EN": "Wuchang",
                "Location": "五常",
                "Latitude": "44.919418",
                "Longitude": "127.157593",
                "Adcode": "230184"
              },
              {
                "LocationID": "101050113",
                "Location_EN": "Mulan",
                "Location": "木兰",
                "Latitude": "45.949825",
                "Longitude": "128.042679",
                "Adcode": "230127"
              },
              {
                "LocationID": "101050114",
                "Location_EN": "Daoli",
                "Location": "道里",
                "Latitude": "45.762035",
                "Longitude": "126.612534",
                "Adcode": "230102"
              },
              {
                "LocationID": "101050115",
                "Location_EN": "Nangang",
                "Location": "南岗",
                "Latitude": "45.75597",
                "Longitude": "126.6521",
                "Adcode": "230103"
              },
              {
                "LocationID": "101050116",
                "Location_EN": "Daowai",
                "Location": "道外",
                "Latitude": "45.784538",
                "Longitude": "126.648834",
                "Adcode": "230104"
              },
              {
                "LocationID": "101050117",
                "Location_EN": "Pingfang",
                "Location": "平房",
                "Latitude": "45.605568",
                "Longitude": "126.629257",
                "Adcode": "230108"
              },
              {
                "LocationID": "101050118",
                "Location_EN": "Songbei",
                "Location": "松北",
                "Latitude": "45.814655",
                "Longitude": "126.563065",
                "Adcode": "230109"
              },
              {
                "LocationID": "101050119",
                "Location_EN": "Xiangfang",
                "Location": "香坊",
                "Latitude": "45.713066",
                "Longitude": "126.667046",
                "Adcode": "230110"
              }
            ]
          },
          {
            "Name": "齐齐哈尔市",
            "Name_EN": "Qiqihar",
            "Locations": [
              {
                "LocationID": "101050201",
                "Location_EN": "Qiqihar",
                "Location": "齐齐哈尔",
                "Latitude": "47.342079",
                "Longitude": "123.957916",
                "Adcode": "230200"
              },
              {
                "LocationID": "101050202",
                "Location_EN": "Nehe",
                "Location": "讷河",
                "Latitude": "48.481133",
                "Longitude": "124.882172",
                "Adcode": "230281"
              },
              {
                "LocationID": "101050203",
                "Location_EN": "Longjiang",
                "Location": "龙江",
                "Latitude": "47.336388",
                "Longitude": "123.187225",
                "Adcode": "230221"
              },
              {
                "LocationID": "101050204",
                "Location_EN": "Gannan Prefecture",
                "Location": "甘南",
                "Latitude": "47.917839",
                "Longitude": "123.506035",
                "Adcode": "230225"
              },
              {
                "LocationID": "101050205",
                "Location_EN": "Fuyu",
                "Location": "富裕",
                "Latitude": "47.797173",
                "Longitude": "124.469109",
                "Adcode": "230227"
              },
              {
                "LocationID": "101050206",
                "Location_EN": "Yi'an",
                "Location": "依安",
                "Latitude": "47.890099",
                "Longitude": "125.307564",
                "Adcode": "230223"
              },
              {
                "LocationID": "101050207",
                "Location_EN": "Baiquan",
                "Location": "拜泉",
                "Latitude": "47.607365",
                "Longitude": "126.091911",
                "Adcode": "230231"
              },
              {
                "LocationID": "101050208",
                "Location_EN": "Keshan",
                "Location": "克山",
                "Latitude": "48.034344",
                "Longitude": "125.874352",
                "Adcode": "230229"
              },
              {
                "LocationID": "101050209",
                "Location_EN": "Kedong",
                "Location": "克东",
                "Latitude": "48.037319",
                "Longitude": "126.249092",
                "Adcode": "230230"
              },
              {
                "LocationID": "101050210",
                "Location_EN": "Tailai",
                "Location": "泰来",
                "Latitude": "46.39233",
                "Longitude": "123.419533",
                "Adcode": "230224"
              },
              {
                "LocationID": "101050211",
                "Location_EN": "Longsha",
                "Location": "龙沙",
                "Latitude": "47.341736",
                "Longitude": "123.957336",
                "Adcode": "230202"
              },
              {
                "LocationID": "101050212",
                "Location_EN": "Jianhua",
                "Location": "建华",
                "Latitude": "47.354492",
                "Longitude": "123.955887",
                "Adcode": "230203"
              },
              {
                "LocationID": "101050213",
                "Location_EN": "Tiefeng",
                "Location": "铁锋",
                "Latitude": "47.3395",
                "Longitude": "123.973557",
                "Adcode": "230204"
              },
              {
                "LocationID": "101050214",
                "Location_EN": "Ang'angxi",
                "Location": "昂昂溪",
                "Latitude": "47.156868",
                "Longitude": "123.813179",
                "Adcode": "230205"
              },
              {
                "LocationID": "101050215",
                "Location_EN": "Fulaerji",
                "Location": "富拉尔基",
                "Latitude": "47.20697",
                "Longitude": "123.63887",
                "Adcode": "230206"
              },
              {
                "LocationID": "101050216",
                "Location_EN": "Nianzishan",
                "Location": "碾子山",
                "Latitude": "47.514011",
                "Longitude": "122.88797",
                "Adcode": "230207"
              },
              {
                "LocationID": "101050217",
                "Location_EN": "Meilisi Daur",
                "Location": "梅里斯",
                "Latitude": "47.311111",
                "Longitude": "123.754601",
                "Adcode": "230208"
              }
            ]
          },
          {
            "Name": "牡丹江市",
            "Name_EN": "Mudanjiang",
            "Locations": [
              {
                "LocationID": "101050301",
                "Location_EN": "Mudanjiang",
                "Location": "牡丹江",
                "Latitude": "44.582962",
                "Longitude": "129.618607",
                "Adcode": "231000"
              },
              {
                "LocationID": "101050302",
                "Location_EN": "Hailin",
                "Location": "海林",
                "Latitude": "44.57415",
                "Longitude": "129.387909",
                "Adcode": "231083"
              },
              {
                "LocationID": "101050303",
                "Location_EN": "Muling",
                "Location": "穆棱",
                "Latitude": "44.91967",
                "Longitude": "130.527084",
                "Adcode": "231085"
              },
              {
                "LocationID": "101050304",
                "Location_EN": "Linkou",
                "Location": "林口",
                "Latitude": "45.286644",
                "Longitude": "130.268402",
                "Adcode": "231025"
              },
              {
                "LocationID": "101050305",
                "Location_EN": "Suifenhe",
                "Location": "绥芬河",
                "Latitude": "44.396866",
                "Longitude": "131.164856",
                "Adcode": "231081"
              },
              {
                "LocationID": "101050306",
                "Location_EN": "Ning'an",
                "Location": "宁安",
                "Latitude": "44.346836",
                "Longitude": "129.470016",
                "Adcode": "231084"
              },
              {
                "LocationID": "101050307",
                "Location_EN": "Dongning",
                "Location": "东宁",
                "Latitude": "44.06358",
                "Longitude": "131.12529",
                "Adcode": "231086"
              },
              {
                "LocationID": "101050308",
                "Location_EN": "Dong'an",
                "Location": "东安",
                "Latitude": "44.582397",
                "Longitude": "129.623291",
                "Adcode": "231002"
              },
              {
                "LocationID": "101050309",
                "Location_EN": "Yangming",
                "Location": "阳明",
                "Latitude": "44.596329",
                "Longitude": "129.634644",
                "Adcode": "231003"
              },
              {
                "LocationID": "101050310",
                "Location_EN": "Aimin",
                "Location": "爱民",
                "Latitude": "44.595444",
                "Longitude": "129.601227",
                "Adcode": "231004"
              },
              {
                "LocationID": "101050311",
                "Location_EN": "Xi'an",
                "Location": "西安",
                "Latitude": "44.581032",
                "Longitude": "129.613113",
                "Adcode": "231005"
              }
            ]
          },
          {
            "Name": "佳木斯市",
            "Name_EN": "Jiamusi",
            "Locations": [
              {
                "LocationID": "101050401",
                "Location_EN": "Jiamusi",
                "Location": "佳木斯",
                "Latitude": "46.809605",
                "Longitude": "130.361633",
                "Adcode": "230800"
              },
              {
                "LocationID": "101050402",
                "Location_EN": "Tangyuan",
                "Location": "汤原",
                "Latitude": "46.730049",
                "Longitude": "129.904465",
                "Adcode": "230828"
              },
              {
                "LocationID": "101050403",
                "Location_EN": "Fuyuan",
                "Location": "抚远",
                "Latitude": "48.364708",
                "Longitude": "134.294495",
                "Adcode": "230883"
              },
              {
                "LocationID": "101050404",
                "Location_EN": "Huachuan",
                "Location": "桦川",
                "Latitude": "47.023041",
                "Longitude": "130.723709",
                "Adcode": "230826"
              },
              {
                "LocationID": "101050405",
                "Location_EN": "Huanan",
                "Location": "桦南",
                "Latitude": "46.240116",
                "Longitude": "130.570114",
                "Adcode": "230822"
              },
              {
                "LocationID": "101050406",
                "Location_EN": "Tongjiang",
                "Location": "同江",
                "Latitude": "47.651131",
                "Longitude": "132.510117",
                "Adcode": "230881"
              },
              {
                "LocationID": "101050407",
                "Location_EN": "Fujin",
                "Location": "富锦",
                "Latitude": "47.250748",
                "Longitude": "132.037949",
                "Adcode": "230882"
              },
              {
                "LocationID": "101050408",
                "Location_EN": "Xiangyang",
                "Location": "向阳",
                "Latitude": "46.809647",
                "Longitude": "130.361786",
                "Adcode": "230803"
              },
              {
                "LocationID": "101050409",
                "Location_EN": "Qianjin",
                "Location": "前进",
                "Latitude": "46.812344",
                "Longitude": "130.377686",
                "Adcode": "230804"
              },
              {
                "LocationID": "101050410",
                "Location_EN": "Dongfeng",
                "Location": "东风",
                "Latitude": "46.822475",
                "Longitude": "130.40329",
                "Adcode": "230805"
              },
              {
                "LocationID": "101050411",
                "Location_EN": "Jiaoqu",
                "Location": "郊区",
                "Latitude": "46.807121",
                "Longitude": "130.351593",
                "Adcode": "230811"
              }
            ]
          },
          {
            "Name": "绥化市",
            "Name_EN": "Suihua",
            "Locations": [
              {
                "LocationID": "101050501",
                "Location_EN": "Suihua",
                "Location": "绥化",
                "Latitude": "46.637394",
                "Longitude": "126.992928",
                "Adcode": "231200"
              },
              {
                "LocationID": "101050502",
                "Location_EN": "Zhaodong",
                "Location": "肇东",
                "Latitude": "46.069469",
                "Longitude": "125.991402",
                "Adcode": "231282"
              },
              {
                "LocationID": "101050503",
                "Location_EN": "Anda",
                "Location": "安达",
                "Latitude": "46.410614",
                "Longitude": "125.329926",
                "Adcode": "231281"
              },
              {
                "LocationID": "101050504",
                "Location_EN": "Hailun",
                "Location": "海伦",
                "Latitude": "47.460426",
                "Longitude": "126.969383",
                "Adcode": "231283"
              },
              {
                "LocationID": "101050505",
                "Location_EN": "Mingshui",
                "Location": "明水",
                "Latitude": "47.183529",
                "Longitude": "125.907547",
                "Adcode": "231225"
              },
              {
                "LocationID": "101050506",
                "Location_EN": "Wangkui",
                "Location": "望奎",
                "Latitude": "46.833519",
                "Longitude": "126.484192",
                "Adcode": "231221"
              },
              {
                "LocationID": "101050507",
                "Location_EN": "Lanxi",
                "Location": "兰西",
                "Latitude": "46.259037",
                "Longitude": "126.289314",
                "Adcode": "231222"
              },
              {
                "LocationID": "101050508",
                "Location_EN": "Qinggang",
                "Location": "青冈",
                "Latitude": "46.686596",
                "Longitude": "126.112267",
                "Adcode": "231223"
              },
              {
                "LocationID": "101050509",
                "Location_EN": "Qing'an",
                "Location": "庆安",
                "Latitude": "46.879204",
                "Longitude": "127.510025",
                "Adcode": "231224"
              },
              {
                "LocationID": "101050510",
                "Location_EN": "Suiling",
                "Location": "绥棱",
                "Latitude": "47.247196",
                "Longitude": "127.111122",
                "Adcode": "231226"
              },
              {
                "LocationID": "101050511",
                "Location_EN": "Beilin",
                "Location": "北林",
                "Latitude": "46.634911",
                "Longitude": "126.990662",
                "Adcode": "231202"
              }
            ]
          },
          {
            "Name": "黑河市",
            "Name_EN": "Heihe",
            "Locations": [
              {
                "LocationID": "101050601",
                "Location_EN": "Heihe",
                "Location": "黑河",
                "Latitude": "50.249584",
                "Longitude": "127.499023",
                "Adcode": "231100"
              },
              {
                "LocationID": "101050602",
                "Location_EN": "Nenjiang",
                "Location": "嫩江",
                "Latitude": "49.17746",
                "Longitude": "125.229904",
                "Adcode": "231183"
              },
              {
                "LocationID": "101050603",
                "Location_EN": "Sunwu",
                "Location": "孙吴",
                "Latitude": "49.423943",
                "Longitude": "127.327316",
                "Adcode": "231124"
              },
              {
                "LocationID": "101050604",
                "Location_EN": "Xunke",
                "Location": "逊克",
                "Latitude": "49.582973",
                "Longitude": "128.476151",
                "Adcode": "231123"
              },
              {
                "LocationID": "101050605",
                "Location_EN": "Wudalianchi",
                "Location": "五大连池",
                "Latitude": "48.512688",
                "Longitude": "126.197693",
                "Adcode": "231182"
              },
              {
                "LocationID": "101050606",
                "Location_EN": "Bei'an",
                "Location": "北安",
                "Latitude": "48.245438",
                "Longitude": "126.508736",
                "Adcode": "231181"
              },
              {
                "LocationID": "101050607",
                "Location_EN": "Aihui",
                "Location": "爱辉",
                "Latitude": "50.249027",
                "Longitude": "127.497643",
                "Adcode": "231102"
              }
            ]
          },
          {
            "Name": "大兴安岭地区",
            "Name_EN": "Daxing'anling Prefecture",
            "Locations": [
              {
                "LocationID": "101050701",
                "Location_EN": "Daxing'anling Prefecture",
                "Location": "大兴安岭",
                "Latitude": "52.335262",
                "Longitude": "124.711525",
                "Adcode": "232700"
              },
              {
                "LocationID": "101050702",
                "Location_EN": "Tahe",
                "Location": "塔河",
                "Latitude": "52.335228",
                "Longitude": "124.710518",
                "Adcode": "232722"
              },
              {
                "LocationID": "101050703",
                "Location_EN": "Mohe",
                "Location": "漠河",
                "Latitude": "52.972073",
                "Longitude": "122.536255",
                "Adcode": "232701"
              },
              {
                "LocationID": "101050704",
                "Location_EN": "Huma",
                "Location": "呼玛",
                "Latitude": "51.726997",
                "Longitude": "126.662102",
                "Adcode": "232721"
              }
            ]
          },
          {
            "Name": "伊春市",
            "Name_EN": "Yichun",
            "Locations": [
              {
                "LocationID": "101050801",
                "Location_EN": "Yichun",
                "Location": "伊春",
                "Latitude": "47.726852",
                "Longitude": "128.899277",
                "Adcode": "230700"
              },
              {
                "LocationID": "101050804",
                "Location_EN": "Tieli",
                "Location": "铁力",
                "Latitude": "46.985771",
                "Longitude": "128.030563",
                "Adcode": "230781"
              },
              {
                "LocationID": "101050805",
                "Location_EN": "Jiayin",
                "Location": "嘉荫",
                "Latitude": "48.891376",
                "Longitude": "130.39769",
                "Adcode": "230722"
              },
              {
                "LocationID": "101050806",
                "Location_EN": "Nancha",
                "Location": "南岔",
                "Latitude": "47.139008",
                "Longitude": "129.283585",
                "Adcode": "230726"
              },
              {
                "LocationID": "101050807",
                "Location_EN": "Youhao zone",
                "Location": "友好",
                "Latitude": "47.854301",
                "Longitude": "128.838959",
                "Adcode": "230719"
              },
              {
                "LocationID": "101050808",
                "Location_EN": "Jinlin",
                "Location": "金林",
                "Latitude": "47.413019",
                "Longitude": "129.428839",
                "Adcode": "230751"
              },
              {
                "LocationID": "101050811",
                "Location_EN": "Yimei",
                "Location": "伊美",
                "Latitude": "47.636101",
                "Longitude": "129.133408",
                "Adcode": "230717"
              },
              {
                "LocationID": "101050813",
                "Location_EN": "Wucui",
                "Location": "乌翠",
                "Latitude": "47.726959",
                "Longitude": "128.802948",
                "Adcode": "230718"
              },
              {
                "LocationID": "101050814",
                "Location_EN": "Tangwangxian",
                "Location": "汤旺县",
                "Latitude": "48.453651",
                "Longitude": "129.572235",
                "Adcode": "230723"
              },
              {
                "LocationID": "101050815",
                "Location_EN": "Daqingshan",
                "Location": "大箐山县",
                "Latitude": "47.027531",
                "Longitude": "129.021149",
                "Adcode": "230725"
              },
              {
                "LocationID": "101050816",
                "Location_EN": "Fenglin",
                "Location": "丰林",
                "Latitude": "48.238369",
                "Longitude": "129.388794",
                "Adcode": "230724"
              }
            ]
          },
          {
            "Name": "大庆市",
            "Name_EN": "Daqing",
            "Locations": [
              {
                "LocationID": "101050901",
                "Location_EN": "Daqing",
                "Location": "大庆",
                "Latitude": "46.590733",
                "Longitude": "125.112717",
                "Adcode": "230600"
              },
              {
                "LocationID": "101050902",
                "Location_EN": "Lindian",
                "Location": "林甸",
                "Latitude": "47.186413",
                "Longitude": "124.877739",
                "Adcode": "230623"
              },
              {
                "LocationID": "101050903",
                "Location_EN": "Zhaozhou",
                "Location": "肇州",
                "Latitude": "45.708687",
                "Longitude": "125.273254",
                "Adcode": "230621"
              },
              {
                "LocationID": "101050904",
                "Location_EN": "Zhaoyuan",
                "Location": "肇源",
                "Latitude": "45.518833",
                "Longitude": "125.08197",
                "Adcode": "230622"
              },
              {
                "LocationID": "101050905",
                "Location_EN": "Dorbod",
                "Location": "杜尔伯特",
                "Latitude": "46.865974",
                "Longitude": "124.446259",
                "Adcode": "230624"
              },
              {
                "LocationID": "101050906",
                "Location_EN": "Sartu",
                "Location": "萨尔图",
                "Latitude": "46.596355",
                "Longitude": "125.114639",
                "Adcode": "230602"
              },
              {
                "LocationID": "101050907",
                "Location_EN": "Longfeng",
                "Location": "龙凤",
                "Latitude": "46.573948",
                "Longitude": "125.145798",
                "Adcode": "230603"
              },
              {
                "LocationID": "101050908",
                "Location_EN": "Ranghulu",
                "Location": "让胡路",
                "Latitude": "46.653255",
                "Longitude": "124.86834",
                "Adcode": "230604"
              },
              {
                "LocationID": "101050909",
                "Location_EN": "Honggang",
                "Location": "红岗",
                "Latitude": "46.403049",
                "Longitude": "124.889526",
                "Adcode": "230605"
              },
              {
                "LocationID": "101050910",
                "Location_EN": "Datong",
                "Location": "大同",
                "Latitude": "46.034306",
                "Longitude": "124.818512",
                "Adcode": "230606"
              }
            ]
          },
          {
            "Name": "七台河市",
            "Name_EN": "Qitaihe",
            "Locations": [
              {
                "LocationID": "101051001",
                "Location_EN": "Xinxing",
                "Location": "新兴",
                "Latitude": "45.794258",
                "Longitude": "130.889481",
                "Adcode": "230902"
              },
              {
                "LocationID": "101051002",
                "Location_EN": "Qitaihe",
                "Location": "七台河",
                "Latitude": "45.771267",
                "Longitude": "131.015579",
                "Adcode": "230900"
              },
              {
                "LocationID": "101051003",
                "Location_EN": "Boli",
                "Location": "勃利",
                "Latitude": "45.751572",
                "Longitude": "130.575027",
                "Adcode": "230921"
              },
              {
                "LocationID": "101051004",
                "Location_EN": "Taoshan",
                "Location": "桃山",
                "Latitude": "45.771217",
                "Longitude": "131.015854",
                "Adcode": "230903"
              },
              {
                "LocationID": "101051005",
                "Location_EN": "Qiezihe",
                "Location": "茄子河",
                "Latitude": "45.776588",
                "Longitude": "131.071564",
                "Adcode": "230904"
              }
            ]
          },
          {
            "Name": "鸡西市",
            "Name_EN": "Jixi",
            "Locations": [
              {
                "LocationID": "101051101",
                "Location_EN": "Jixi",
                "Location": "鸡西",
                "Latitude": "45.300045",
                "Longitude": "130.975967",
                "Adcode": "230300"
              },
              {
                "LocationID": "101051102",
                "Location_EN": "Hulin",
                "Location": "虎林",
                "Latitude": "45.767986",
                "Longitude": "132.973877",
                "Adcode": "230381"
              },
              {
                "LocationID": "101051103",
                "Location_EN": "Mishan",
                "Location": "密山",
                "Latitude": "45.547249",
                "Longitude": "131.87413",
                "Adcode": "230382"
              },
              {
                "LocationID": "101051104",
                "Location_EN": "Jidong",
                "Location": "鸡东",
                "Latitude": "45.250893",
                "Longitude": "131.148911",
                "Adcode": "230321"
              },
              {
                "LocationID": "101051105",
                "Location_EN": "Jiguan",
                "Location": "鸡冠",
                "Latitude": "45.300339",
                "Longitude": "130.97438",
                "Adcode": "230302"
              },
              {
                "LocationID": "101051106",
                "Location_EN": "Hengshan",
                "Location": "恒山",
                "Latitude": "45.213242",
                "Longitude": "130.910629",
                "Adcode": "230303"
              },
              {
                "LocationID": "101051107",
                "Location_EN": "Didao",
                "Location": "滴道",
                "Latitude": "45.348812",
                "Longitude": "130.846817",
                "Adcode": "230304"
              },
              {
                "LocationID": "101051108",
                "Location_EN": "Lishu",
                "Location": "梨树",
                "Latitude": "45.092194",
                "Longitude": "130.697784",
                "Adcode": "230305"
              },
              {
                "LocationID": "101051109",
                "Location_EN": "Chengzihe",
                "Location": "城子河",
                "Latitude": "45.338249",
                "Longitude": "131.010498",
                "Adcode": "230306"
              },
              {
                "LocationID": "101051110",
                "Location_EN": "Mashan",
                "Location": "麻山",
                "Latitude": "45.209606",
                "Longitude": "130.481125",
                "Adcode": "230307"
              }
            ]
          },
          {
            "Name": "鹤岗市",
            "Name_EN": "Hegang",
            "Locations": [
              {
                "LocationID": "101051201",
                "Location_EN": "Hegang",
                "Location": "鹤岗",
                "Latitude": "47.332085",
                "Longitude": "130.277481",
                "Adcode": "230400"
              },
              {
                "LocationID": "101051202",
                "Location_EN": "Suibin",
                "Location": "绥滨",
                "Latitude": "47.28989",
                "Longitude": "131.860519",
                "Adcode": "230422"
              },
              {
                "LocationID": "101051203",
                "Location_EN": "Luobei",
                "Location": "萝北",
                "Latitude": "47.577576",
                "Longitude": "130.829086",
                "Adcode": "230421"
              },
              {
                "LocationID": "101051204",
                "Location_EN": "Xiangyang",
                "Location": "向阳",
                "Latitude": "47.345371",
                "Longitude": "130.29248",
                "Adcode": "230402"
              },
              {
                "LocationID": "101051205",
                "Location_EN": "Gongnong",
                "Location": "工农",
                "Latitude": "47.331676",
                "Longitude": "130.276657",
                "Adcode": "230403"
              },
              {
                "LocationID": "101051206",
                "Location_EN": "Nanshan",
                "Location": "南山",
                "Latitude": "47.31324",
                "Longitude": "130.275528",
                "Adcode": "230404"
              },
              {
                "LocationID": "101051207",
                "Location_EN": "Xing'an",
                "Location": "兴安",
                "Latitude": "47.252911",
                "Longitude": "130.236176",
                "Adcode": "230405"
              },
              {
                "LocationID": "101051208",
                "Location_EN": "Dongshan",
                "Location": "东山",
                "Latitude": "47.337383",
                "Longitude": "130.317139",
                "Adcode": "230406"
              },
              {
                "LocationID": "101051209",
                "Location_EN": "Xingshan",
                "Location": "兴山",
                "Latitude": "47.35997",
                "Longitude": "130.305344",
                "Adcode": "230407"
              }
            ]
          },
          {
            "Name": "双鸭山市",
            "Name_EN": "Shuangyashan",
            "Locations": [
              {
                "LocationID": "101051301",
                "Location_EN": "Shuangyashan",
                "Location": "双鸭山",
                "Latitude": "46.64344",
                "Longitude": "131.157303",
                "Adcode": "230500"
              },
              {
                "LocationID": "101051302",
                "Location_EN": "Jixian",
                "Location": "集贤",
                "Latitude": "46.728981",
                "Longitude": "131.139328",
                "Adcode": "230521"
              },
              {
                "LocationID": "101051303",
                "Location_EN": "Baoqing",
                "Location": "宝清",
                "Latitude": "46.328781",
                "Longitude": "132.206421",
                "Adcode": "230523"
              },
              {
                "LocationID": "101051304",
                "Location_EN": "Raohe",
                "Location": "饶河",
                "Latitude": "46.801289",
                "Longitude": "134.021164",
                "Adcode": "230524"
              },
              {
                "LocationID": "101051305",
                "Location_EN": "Youyi",
                "Location": "友谊",
                "Latitude": "46.775158",
                "Longitude": "131.810623",
                "Adcode": "230522"
              },
              {
                "LocationID": "101051306",
                "Location_EN": "Jianshan",
                "Location": "尖山",
                "Latitude": "46.64296",
                "Longitude": "131.158966",
                "Adcode": "230502"
              },
              {
                "LocationID": "101051307",
                "Location_EN": "Lingdong",
                "Location": "岭东",
                "Latitude": "46.591076",
                "Longitude": "131.163681",
                "Adcode": "230503"
              },
              {
                "LocationID": "101051308",
                "Location_EN": "Sifangtai",
                "Location": "四方台",
                "Latitude": "46.594345",
                "Longitude": "131.333176",
                "Adcode": "230505"
              },
              {
                "LocationID": "101051309",
                "Location_EN": "Baoshan",
                "Location": "宝山",
                "Latitude": "46.573364",
                "Longitude": "131.404297",
                "Adcode": "230506"
              }
            ]
          }
        ]
      },
      {
        "Name": "吉林省",
        "Name_EN": "Jilin",
        "Citys": [
          {
            "Name": "长春市",
            "Name_EN": "Changchun",
            "Locations": [
              {
                "LocationID": "101060101",
                "Location_EN": "Changchun",
                "Location": "长春",
                "Latitude": "43.886841",
                "Longitude": "125.324501",
                "Adcode": "220100"
              },
              {
                "LocationID": "101060102",
                "Location_EN": "Nong'an",
                "Location": "农安",
                "Latitude": "44.431259",
                "Longitude": "125.175285",
                "Adcode": "220122"
              },
              {
                "LocationID": "101060103",
                "Location_EN": "Dehui",
                "Location": "德惠",
                "Latitude": "44.533909",
                "Longitude": "125.703323",
                "Adcode": "220183"
              },
              {
                "LocationID": "101060104",
                "Location_EN": "Jiutai",
                "Location": "九台",
                "Latitude": "44.157154",
                "Longitude": "125.844681",
                "Adcode": "220113"
              },
              {
                "LocationID": "101060105",
                "Location_EN": "Yushu Prefecture",
                "Location": "榆树",
                "Latitude": "44.827641",
                "Longitude": "126.55011",
                "Adcode": "220182"
              },
              {
                "LocationID": "101060106",
                "Location_EN": "Shuangyang",
                "Location": "双阳",
                "Latitude": "43.525169",
                "Longitude": "125.659019",
                "Adcode": "220112"
              },
              {
                "LocationID": "101060107",
                "Location_EN": "Erdao",
                "Location": "二道",
                "Latitude": "43.870823",
                "Longitude": "125.384727",
                "Adcode": "220105"
              },
              {
                "LocationID": "101060108",
                "Location_EN": "Nanguan",
                "Location": "南关",
                "Latitude": "43.890236",
                "Longitude": "125.337234",
                "Adcode": "220102"
              },
              {
                "LocationID": "101060109",
                "Location_EN": "Kuancheng",
                "Location": "宽城",
                "Latitude": "43.903824",
                "Longitude": "125.342827",
                "Adcode": "220103"
              },
              {
                "LocationID": "101060110",
                "Location_EN": "Chaoyang",
                "Location": "朝阳",
                "Latitude": "43.86491",
                "Longitude": "125.318039",
                "Adcode": "220104"
              },
              {
                "LocationID": "101060111",
                "Location_EN": "Luyuan",
                "Location": "绿园",
                "Latitude": "43.892178",
                "Longitude": "125.272469",
                "Adcode": "220106"
              }
            ]
          },
          {
            "Name": "吉林市",
            "Name_EN": "Jilin",
            "Locations": [
              {
                "LocationID": "101060201",
                "Location_EN": "Jilin",
                "Location": "吉林",
                "Latitude": "43.843578",
                "Longitude": "126.553017",
                "Adcode": "220200"
              },
              {
                "LocationID": "101060202",
                "Location_EN": "Shulan",
                "Location": "舒兰",
                "Latitude": "44.410908",
                "Longitude": "126.947815",
                "Adcode": "220283"
              },
              {
                "LocationID": "101060203",
                "Location_EN": "Yongji",
                "Location": "永吉",
                "Latitude": "43.667416",
                "Longitude": "126.501625",
                "Adcode": "220221"
              },
              {
                "LocationID": "101060204",
                "Location_EN": "Jiaohe",
                "Location": "蛟河",
                "Latitude": "43.720577",
                "Longitude": "127.342735",
                "Adcode": "220281"
              },
              {
                "LocationID": "101060205",
                "Location_EN": "Panshi",
                "Location": "磐石",
                "Latitude": "42.942474",
                "Longitude": "126.059929",
                "Adcode": "220284"
              },
              {
                "LocationID": "101060206",
                "Location_EN": "Huadian",
                "Location": "桦甸",
                "Latitude": "42.972092",
                "Longitude": "126.745445",
                "Adcode": "220282"
              },
              {
                "LocationID": "101060207",
                "Location_EN": "Changyi",
                "Location": "昌邑",
                "Latitude": "43.851116",
                "Longitude": "126.570763",
                "Adcode": "220202"
              },
              {
                "LocationID": "101060208",
                "Location_EN": "Longtan",
                "Location": "龙潭",
                "Latitude": "43.909756",
                "Longitude": "126.561432",
                "Adcode": "220203"
              },
              {
                "LocationID": "101060209",
                "Location_EN": "Chuanying",
                "Location": "船营",
                "Latitude": "43.843803",
                "Longitude": "126.552391",
                "Adcode": "220204"
              },
              {
                "LocationID": "101060210",
                "Location_EN": "Fengman",
                "Location": "丰满",
                "Latitude": "43.816593",
                "Longitude": "126.56076",
                "Adcode": "220211"
              }
            ]
          },
          {
            "Name": "延边朝鲜族自治州",
            "Name_EN": "Yanbian Korean Autonomous Prefecture",
            "Locations": [
              {
                "LocationID": "101060301",
                "Location_EN": "Yanji",
                "Location": "延吉",
                "Latitude": "42.906963",
                "Longitude": "129.515793",
                "Adcode": "222401"
              },
              {
                "LocationID": "101060302",
                "Location_EN": "Dunhua",
                "Location": "敦化",
                "Latitude": "43.36692",
                "Longitude": "128.229858",
                "Adcode": "222403"
              },
              {
                "LocationID": "101060303",
                "Location_EN": "Antu",
                "Location": "安图",
                "Latitude": "43.110992",
                "Longitude": "128.901871",
                "Adcode": "222426"
              },
              {
                "LocationID": "101060304",
                "Location_EN": "Wangqing",
                "Location": "汪清",
                "Latitude": "43.315426",
                "Longitude": "129.766159",
                "Adcode": "222424"
              },
              {
                "LocationID": "101060305",
                "Location_EN": "Helong",
                "Location": "和龙",
                "Latitude": "42.547005",
                "Longitude": "129.008743",
                "Adcode": "222406"
              },
              {
                "LocationID": "101060306",
                "Location_EN": "Yanbian Prefecture",
                "Location": "延边",
                "Latitude": "42.904823",
                "Longitude": "129.513229",
                "Adcode": "222400"
              },
              {
                "LocationID": "101060307",
                "Location_EN": "Longjing",
                "Location": "龙井",
                "Latitude": "42.77103",
                "Longitude": "129.425751",
                "Adcode": "222405"
              },
              {
                "LocationID": "101060308",
                "Location_EN": "Hunchun",
                "Location": "珲春",
                "Latitude": "42.871056",
                "Longitude": "130.365784",
                "Adcode": "222404"
              },
              {
                "LocationID": "101060309",
                "Location_EN": "Tumen",
                "Location": "图们",
                "Latitude": "42.966621",
                "Longitude": "129.846695",
                "Adcode": "222402"
              }
            ]
          },
          {
            "Name": "四平市",
            "Name_EN": "Siping",
            "Locations": [
              {
                "LocationID": "101060401",
                "Location_EN": "Siping",
                "Location": "四平",
                "Latitude": "43.170345",
                "Longitude": "124.370789",
                "Adcode": "220300"
              },
              {
                "LocationID": "101060402",
                "Location_EN": "Shuangliao",
                "Location": "双辽",
                "Latitude": "43.518276",
                "Longitude": "123.50528",
                "Adcode": "220382"
              },
              {
                "LocationID": "101060403",
                "Location_EN": "Lishu",
                "Location": "梨树",
                "Latitude": "43.308311",
                "Longitude": "124.3358",
                "Adcode": "220322"
              },
              {
                "LocationID": "101060404",
                "Location_EN": "Gongzhuling",
                "Location": "公主岭",
                "Latitude": "43.509476",
                "Longitude": "124.817589",
                "Adcode": "220184"
              },
              {
                "LocationID": "101060405",
                "Location_EN": "Yitong",
                "Location": "伊通",
                "Latitude": "43.345463",
                "Longitude": "125.303123",
                "Adcode": "220323"
              },
              {
                "LocationID": "101060406",
                "Location_EN": "Tiexi",
                "Location": "铁西",
                "Latitude": "43.176262",
                "Longitude": "124.360893",
                "Adcode": "220302"
              },
              {
                "LocationID": "101060407",
                "Location_EN": "Tiedong",
                "Location": "铁东",
                "Latitude": "43.167259",
                "Longitude": "124.388466",
                "Adcode": "220303"
              }
            ]
          },
          {
            "Name": "通化市",
            "Name_EN": "Tonghua",
            "Locations": [
              {
                "LocationID": "101060501",
                "Location_EN": "Tonghua",
                "Location": "通化",
                "Latitude": "41.721176",
                "Longitude": "125.936501",
                "Adcode": "220500"
              },
              {
                "LocationID": "101060502",
                "Location_EN": "Meihekou",
                "Location": "梅河口",
                "Latitude": "42.530003",
                "Longitude": "125.68734",
                "Adcode": "220581"
              },
              {
                "LocationID": "101060503",
                "Location_EN": "Liuhe",
                "Location": "柳河",
                "Latitude": "42.281483",
                "Longitude": "125.74054",
                "Adcode": "220524"
              },
              {
                "LocationID": "101060504",
                "Location_EN": "Huinan",
                "Location": "辉南",
                "Latitude": "42.68346",
                "Longitude": "126.042824",
                "Adcode": "220523"
              },
              {
                "LocationID": "101060505",
                "Location_EN": "Ji'an",
                "Location": "集安",
                "Latitude": "41.126274",
                "Longitude": "126.186203",
                "Adcode": "220582"
              },
              {
                "LocationID": "101060506",
                "Location_EN": "Tonghua County",
                "Location": "通化县",
                "Latitude": "41.677917",
                "Longitude": "125.75312",
                "Adcode": "220521"
              },
              {
                "LocationID": "101060507",
                "Location_EN": "Dongchang",
                "Location": "东昌",
                "Latitude": "41.721233",
                "Longitude": "125.936714",
                "Adcode": "220502"
              },
              {
                "LocationID": "101060508",
                "Location_EN": "Erdaojiang",
                "Location": "二道江",
                "Latitude": "41.777565",
                "Longitude": "126.04599",
                "Adcode": "220503"
              }
            ]
          },
          {
            "Name": "白城市",
            "Name_EN": "Baicheng",
            "Locations": [
              {
                "LocationID": "101060601",
                "Location_EN": "Baicheng",
                "Location": "白城",
                "Latitude": "45.619026",
                "Longitude": "122.84111",
                "Adcode": "220800"
              },
              {
                "LocationID": "101060602",
                "Location_EN": "Taonan",
                "Location": "洮南",
                "Latitude": "45.339111",
                "Longitude": "122.783775",
                "Adcode": "220881"
              },
              {
                "LocationID": "101060603",
                "Location_EN": "Da'an",
                "Location": "大安",
                "Latitude": "45.507648",
                "Longitude": "124.291512",
                "Adcode": "220882"
              },
              {
                "LocationID": "101060604",
                "Location_EN": "Zhenlai",
                "Location": "镇赉",
                "Latitude": "45.846088",
                "Longitude": "123.202248",
                "Adcode": "220821"
              },
              {
                "LocationID": "101060605",
                "Location_EN": "Tongyu",
                "Location": "通榆",
                "Latitude": "44.809151",
                "Longitude": "123.088547",
                "Adcode": "220822"
              },
              {
                "LocationID": "101060606",
                "Location_EN": "Taobei",
                "Location": "洮北",
                "Latitude": "45.619251",
                "Longitude": "122.842499",
                "Adcode": "220802"
              }
            ]
          },
          {
            "Name": "辽源市",
            "Name_EN": "Liaoyuan",
            "Locations": [
              {
                "LocationID": "101060701",
                "Location_EN": "Liaoyuan",
                "Location": "辽源",
                "Latitude": "42.902691",
                "Longitude": "125.145348",
                "Adcode": "220400"
              },
              {
                "LocationID": "101060702",
                "Location_EN": "Dongfeng",
                "Location": "东丰",
                "Latitude": "42.675228",
                "Longitude": "125.529625",
                "Adcode": "220421"
              },
              {
                "LocationID": "101060703",
                "Location_EN": "Dongliao",
                "Location": "东辽",
                "Latitude": "42.927723",
                "Longitude": "124.991997",
                "Adcode": "220422"
              },
              {
                "LocationID": "101060704",
                "Location_EN": "Longshan",
                "Location": "龙山",
                "Latitude": "42.902702",
                "Longitude": "125.145164",
                "Adcode": "220402"
              },
              {
                "LocationID": "101060705",
                "Location_EN": "Xi'an",
                "Location": "西安",
                "Latitude": "42.920414",
                "Longitude": "125.151421",
                "Adcode": "220403"
              }
            ]
          },
          {
            "Name": "松原市",
            "Name_EN": "Songyuan",
            "Locations": [
              {
                "LocationID": "101060801",
                "Location_EN": "Songyuan",
                "Location": "松原",
                "Latitude": "45.118244",
                "Longitude": "124.823608",
                "Adcode": "220700"
              },
              {
                "LocationID": "101060802",
                "Location_EN": "Qian'an",
                "Location": "乾安",
                "Latitude": "45.006847",
                "Longitude": "124.024361",
                "Adcode": "220723"
              },
              {
                "LocationID": "101060803",
                "Location_EN": "Qian Gorlos",
                "Location": "前郭",
                "Latitude": "45.116287",
                "Longitude": "124.826805",
                "Adcode": "220721"
              },
              {
                "LocationID": "101060804",
                "Location_EN": "Changling",
                "Location": "长岭",
                "Latitude": "44.276581",
                "Longitude": "123.985184",
                "Adcode": "220722"
              },
              {
                "LocationID": "101060805",
                "Location_EN": "Fuyu",
                "Location": "扶余",
                "Latitude": "44.986198",
                "Longitude": "126.042755",
                "Adcode": "220781"
              },
              {
                "LocationID": "101060806",
                "Location_EN": "Ningjiang",
                "Location": "宁江",
                "Latitude": "45.176498",
                "Longitude": "124.82785",
                "Adcode": "220702"
              }
            ]
          },
          {
            "Name": "白山市",
            "Name_EN": "Baishan",
            "Locations": [
              {
                "LocationID": "101060901",
                "Location_EN": "Baishan",
                "Location": "白山",
                "Latitude": "41.942505",
                "Longitude": "126.427841",
                "Adcode": "220600"
              },
              {
                "LocationID": "101060902",
                "Location_EN": "Jingyu",
                "Location": "靖宇",
                "Latitude": "42.38969",
                "Longitude": "126.808388",
                "Adcode": "220622"
              },
              {
                "LocationID": "101060903",
                "Location_EN": "Linjiang",
                "Location": "临江",
                "Latitude": "41.810688",
                "Longitude": "126.919296",
                "Adcode": "220681"
              },
              {
                "LocationID": "101060905",
                "Location_EN": "Changbai",
                "Location": "长白",
                "Latitude": "41.419361",
                "Longitude": "128.203384",
                "Adcode": "220623"
              },
              {
                "LocationID": "101060906",
                "Location_EN": "Fusong",
                "Location": "抚松",
                "Latitude": "42.332642",
                "Longitude": "127.273796",
                "Adcode": "220621"
              },
              {
                "LocationID": "101060907",
                "Location_EN": "Jiangyuan",
                "Location": "江源",
                "Latitude": "42.048107",
                "Longitude": "126.584229",
                "Adcode": "220605"
              },
              {
                "LocationID": "101060908",
                "Location_EN": "Hunjiang",
                "Location": "浑江",
                "Latitude": "41.943066",
                "Longitude": "126.428032",
                "Adcode": "220602"
              }
            ]
          }
        ]
      },
      {
        "Name": "辽宁省",
        "Name_EN": "Liaoning",
        "Citys": [
          {
            "Name": "沈阳市",
            "Name_EN": "Shenyang",
            "Locations": [
              {
                "LocationID": "101070101",
                "Location_EN": "Shenyang",
                "Location": "沈阳",
                "Latitude": "41.796768",
                "Longitude": "123.429092",
                "Adcode": "210100"
              },
              {
                "LocationID": "101070102",
                "Location_EN": "Hunnan",
                "Location": "浑南",
                "Latitude": "41.741947",
                "Longitude": "123.458984",
                "Adcode": "210112"
              },
              {
                "LocationID": "101070103",
                "Location_EN": "Liaozhong",
                "Location": "辽中",
                "Latitude": "41.512726",
                "Longitude": "122.73127",
                "Adcode": "210115"
              },
              {
                "LocationID": "101070104",
                "Location_EN": "Kangping",
                "Location": "康平",
                "Latitude": "42.741531",
                "Longitude": "123.352699",
                "Adcode": "210123"
              },
              {
                "LocationID": "101070105",
                "Location_EN": "Faku",
                "Location": "法库",
                "Latitude": "42.507046",
                "Longitude": "123.416725",
                "Adcode": "210124"
              },
              {
                "LocationID": "101070106",
                "Location_EN": "Xinmin",
                "Location": "新民",
                "Latitude": "41.99651",
                "Longitude": "122.828865",
                "Adcode": "210181"
              },
              {
                "LocationID": "101070107",
                "Location_EN": "Heping",
                "Location": "和平",
                "Latitude": "41.788074",
                "Longitude": "123.406662",
                "Adcode": "210102"
              },
              {
                "LocationID": "101070108",
                "Location_EN": "Shenhe",
                "Location": "沈河",
                "Latitude": "41.795589",
                "Longitude": "123.445694",
                "Adcode": "210103"
              },
              {
                "LocationID": "101070109",
                "Location_EN": "Dadong",
                "Location": "大东",
                "Latitude": "41.808502",
                "Longitude": "123.469955",
                "Adcode": "210104"
              },
              {
                "LocationID": "101070110",
                "Location_EN": "Huanggu",
                "Location": "皇姑",
                "Latitude": "41.822334",
                "Longitude": "123.405678",
                "Adcode": "210105"
              },
              {
                "LocationID": "101070111",
                "Location_EN": "Tiexi",
                "Location": "铁西",
                "Latitude": "41.787807",
                "Longitude": "123.350662",
                "Adcode": "210106"
              },
              {
                "LocationID": "101070112",
                "Location_EN": "Sujiatun",
                "Location": "苏家屯",
                "Latitude": "41.665905",
                "Longitude": "123.341606",
                "Adcode": "210111"
              },
              {
                "LocationID": "101070113",
                "Location_EN": "Shenbei New Area",
                "Location": "沈北新区",
                "Latitude": "42.052311",
                "Longitude": "123.521469",
                "Adcode": "210113"
              },
              {
                "LocationID": "101070114",
                "Location_EN": "Yuhong",
                "Location": "于洪",
                "Latitude": "41.795834",
                "Longitude": "123.310829",
                "Adcode": "210114"
              }
            ]
          },
          {
            "Name": "大连市",
            "Name_EN": "Dalian",
            "Locations": [
              {
                "LocationID": "101070201",
                "Location_EN": "Dalian",
                "Location": "大连",
                "Latitude": "38.914589",
                "Longitude": "121.618622",
                "Adcode": "210200"
              },
              {
                "LocationID": "101070202",
                "Location_EN": "Wafangdian",
                "Location": "瓦房店",
                "Latitude": "39.63065",
                "Longitude": "122.002655",
                "Adcode": "210281"
              },
              {
                "LocationID": "101070203",
                "Location_EN": "Jinzhou",
                "Location": "金州",
                "Latitude": "39.052746",
                "Longitude": "121.789413",
                "Adcode": "210213"
              },
              {
                "LocationID": "101070204",
                "Location_EN": "Pulandian",
                "Location": "普兰店",
                "Latitude": "39.401554",
                "Longitude": "121.970497",
                "Adcode": "210214"
              },
              {
                "LocationID": "101070205",
                "Location_EN": "Lyushunkou",
                "Location": "旅顺",
                "Latitude": "38.812042",
                "Longitude": "121.267128",
                "Adcode": "210212"
              },
              {
                "LocationID": "101070206",
                "Location_EN": "Changhai",
                "Location": "长海",
                "Latitude": "39.2724",
                "Longitude": "122.587822",
                "Adcode": "210224"
              },
              {
                "LocationID": "101070207",
                "Location_EN": "Zhuanghe",
                "Location": "庄河",
                "Latitude": "39.698292",
                "Longitude": "122.970612",
                "Adcode": "210283"
              },
              {
                "LocationID": "101070208",
                "Location_EN": "Zhongshan",
                "Location": "中山",
                "Latitude": "38.921555",
                "Longitude": "121.643761",
                "Adcode": "210202"
              },
              {
                "LocationID": "101070209",
                "Location_EN": "Xigang",
                "Location": "西岗",
                "Latitude": "38.914265",
                "Longitude": "121.616112",
                "Adcode": "210203"
              },
              {
                "LocationID": "101070210",
                "Location_EN": "Shahekou",
                "Location": "沙河口",
                "Latitude": "38.912861",
                "Longitude": "121.593704",
                "Adcode": "210204"
              },
              {
                "LocationID": "101070211",
                "Location_EN": "Ganjingzi",
                "Location": "甘井子",
                "Latitude": "38.975147",
                "Longitude": "121.582611",
                "Adcode": "210211"
              }
            ]
          },
          {
            "Name": "鞍山市",
            "Name_EN": "Anshan",
            "Locations": [
              {
                "LocationID": "101070301",
                "Location_EN": "Anshan",
                "Location": "鞍山",
                "Latitude": "41.110626",
                "Longitude": "122.995628",
                "Adcode": "210300"
              },
              {
                "LocationID": "101070302",
                "Location_EN": "Tai'an",
                "Location": "台安",
                "Latitude": "41.38686",
                "Longitude": "122.429733",
                "Adcode": "210321"
              },
              {
                "LocationID": "101070303",
                "Location_EN": "Xiuyan",
                "Location": "岫岩",
                "Latitude": "40.281509",
                "Longitude": "123.28833",
                "Adcode": "210323"
              },
              {
                "LocationID": "101070304",
                "Location_EN": "Haicheng",
                "Location": "海城",
                "Latitude": "40.852531",
                "Longitude": "122.752197",
                "Adcode": "210381"
              },
              {
                "LocationID": "101070305",
                "Location_EN": "Tiedong",
                "Location": "铁东",
                "Latitude": "41.110344",
                "Longitude": "122.994476",
                "Adcode": "210302"
              },
              {
                "LocationID": "101070306",
                "Location_EN": "Tiexi",
                "Location": "铁西",
                "Latitude": "41.110691",
                "Longitude": "122.971832",
                "Adcode": "210303"
              },
              {
                "LocationID": "101070307",
                "Location_EN": "Lishan",
                "Location": "立山",
                "Latitude": "41.150623",
                "Longitude": "123.024803",
                "Adcode": "210304"
              },
              {
                "LocationID": "101070308",
                "Location_EN": "Qianshan",
                "Location": "千山",
                "Latitude": "41.068909",
                "Longitude": "122.949295",
                "Adcode": "210311"
              }
            ]
          },
          {
            "Name": "抚顺市",
            "Name_EN": "Fushun",
            "Locations": [
              {
                "LocationID": "101070401",
                "Location_EN": "Fushun",
                "Location": "抚顺",
                "Latitude": "41.922646",
                "Longitude": "124.097977",
                "Adcode": "210400"
              },
              {
                "LocationID": "101070402",
                "Location_EN": "Xinbin",
                "Location": "新宾",
                "Latitude": "41.732456",
                "Longitude": "125.037544",
                "Adcode": "210422"
              },
              {
                "LocationID": "101070403",
                "Location_EN": "Qingyuan",
                "Location": "清原",
                "Latitude": "42.101349",
                "Longitude": "124.927193",
                "Adcode": "210423"
              },
              {
                "LocationID": "101070405",
                "Location_EN": "Xinfu",
                "Location": "新抚",
                "Latitude": "41.860821",
                "Longitude": "123.902855",
                "Adcode": "210402"
              },
              {
                "LocationID": "101070406",
                "Location_EN": "Dongzhou",
                "Location": "东洲",
                "Latitude": "41.866829",
                "Longitude": "124.047218",
                "Adcode": "210403"
              },
              {
                "LocationID": "101070407",
                "Location_EN": "Wanghua",
                "Location": "望花",
                "Latitude": "41.851803",
                "Longitude": "123.801506",
                "Adcode": "210404"
              },
              {
                "LocationID": "101070408",
                "Location_EN": "Shuncheng",
                "Location": "顺城",
                "Latitude": "41.88113",
                "Longitude": "123.917168",
                "Adcode": "210411"
              },
              {
                "LocationID": "101070409",
                "Location_EN": "Fushun County",
                "Location": "抚顺县",
                "Latitude": "41.922644",
                "Longitude": "124.097979",
                "Adcode": "210421"
              }
            ]
          },
          {
            "Name": "本溪市",
            "Name_EN": "Benxi",
            "Locations": [
              {
                "LocationID": "101070501",
                "Location_EN": "Benxi",
                "Location": "本溪",
                "Latitude": "41.297909",
                "Longitude": "123.770515",
                "Adcode": "210500"
              },
              {
                "LocationID": "101070502",
                "Location_EN": "Benxi County",
                "Location": "本溪县",
                "Latitude": "41.18",
                "Longitude": "124.169998",
                "Adcode": "210521"
              },
              {
                "LocationID": "101070503",
                "Location_EN": "Pingshan",
                "Location": "平山",
                "Latitude": "41.29158",
                "Longitude": "123.76123",
                "Adcode": "210502"
              },
              {
                "LocationID": "101070504",
                "Location_EN": "Huanren",
                "Location": "桓仁",
                "Latitude": "41.268997",
                "Longitude": "125.359192",
                "Adcode": "210522"
              },
              {
                "LocationID": "101070505",
                "Location_EN": "Xihu",
                "Location": "溪湖",
                "Latitude": "41.330055",
                "Longitude": "123.765228",
                "Adcode": "210503"
              },
              {
                "LocationID": "101070506",
                "Location_EN": "Mingshan",
                "Location": "明山",
                "Latitude": "41.302429",
                "Longitude": "123.76329",
                "Adcode": "210504"
              },
              {
                "LocationID": "101070507",
                "Location_EN": "Nanfen",
                "Location": "南芬",
                "Latitude": "41.104092",
                "Longitude": "123.748383",
                "Adcode": "210505"
              }
            ]
          },
          {
            "Name": "丹东市",
            "Name_EN": "Dandong",
            "Locations": [
              {
                "LocationID": "101070601",
                "Location_EN": "Dandong",
                "Location": "丹东",
                "Latitude": "40.124294",
                "Longitude": "124.383041",
                "Adcode": "210600"
              },
              {
                "LocationID": "101070602",
                "Location_EN": "Fengcheng",
                "Location": "凤城",
                "Latitude": "40.457565",
                "Longitude": "124.071068",
                "Adcode": "210682"
              },
              {
                "LocationID": "101070603",
                "Location_EN": "Kuandian",
                "Location": "宽甸",
                "Latitude": "40.730412",
                "Longitude": "124.784866",
                "Adcode": "210624"
              },
              {
                "LocationID": "101070604",
                "Location_EN": "Donggang",
                "Location": "东港",
                "Latitude": "39.883469",
                "Longitude": "124.149437",
                "Adcode": "210681"
              },
              {
                "LocationID": "101070605",
                "Location_EN": "Yuanbao",
                "Location": "元宝",
                "Latitude": "40.136482",
                "Longitude": "124.397812",
                "Adcode": "210602"
              },
              {
                "LocationID": "101070606",
                "Location_EN": "Zhenxing",
                "Location": "振兴",
                "Latitude": "40.102802",
                "Longitude": "124.361153",
                "Adcode": "210603"
              },
              {
                "LocationID": "101070607",
                "Location_EN": "Zhen'an",
                "Location": "振安",
                "Latitude": "40.158558",
                "Longitude": "124.427711",
                "Adcode": "210604"
              }
            ]
          },
          {
            "Name": "锦州市",
            "Name_EN": "Jinzhou",
            "Locations": [
              {
                "LocationID": "101070701",
                "Location_EN": "Jinzhou",
                "Location": "锦州",
                "Latitude": "41.11927",
                "Longitude": "121.135742",
                "Adcode": "210700"
              },
              {
                "LocationID": "101070702",
                "Location_EN": "Linghai",
                "Location": "凌海",
                "Latitude": "41.171738",
                "Longitude": "121.364235",
                "Adcode": "210781"
              },